{
"type": "FeatureCollection",
"name": "streetCenter",
"crs": { "type": "name", "properties": { "name": "urn:ogc:def:crs:OGC:1.3:CRS84" } },
"features": [
{ "type": "Feature", "properties": { "NAME": "书院街街道办事处", "ORIG_FID": 0, "x": "104.086576739986", "y": "30.6639864830785" }, "geometry": { "type": "Point", "coordinates": [ 104.086576739986299, 30.663986483078531 ] } },
{ "type": "Feature", "properties": { "NAME": "春熙路街道办事处", "ORIG_FID": 1, "x": "104.077300252298", "y": "30.6619134989837" }, "geometry": { "type": "Point", "coordinates": [ 104.07730025229796, 30.661913498983665 ] } },
{ "type": "Feature", "properties": { "NAME": "盐市口街道办事处", "ORIG_FID": 2, "x": "104.068899443047", "y": "30.6585158416439" }, "geometry": { "type": "Point", "coordinates": [ 104.068899443046689, 30.658515841643919 ] } },
{ "type": "Feature", "properties": { "NAME": "合江亭街道办事处", "ORIG_FID": 3, "x": "104.079126093088", "y": "30.6520960771759" }, "geometry": { "type": "Point", "coordinates": [ 104.079126093088462, 30.652096077175884 ] } },
{ "type": "Feature", "properties": { "NAME": "督院街街道办事处", "ORIG_FID": 4, "x": "104.066819536691", "y": "30.6518576726682" }, "geometry": { "type": "Point", "coordinates": [ 104.066819536690957, 30.6518576726682 ] } },
{ "type": "Feature", "properties": { "NAME": "水井坊街道办事处", "ORIG_FID": 5, "x": "104.086771476759", "y": "30.6489422628189" }, "geometry": { "type": "Point", "coordinates": [ 104.086771476759452, 30.648942262818935 ] } },
{ "type": "Feature", "properties": { "NAME": "牛市口街道办事处", "ORIG_FID": 6, "x": "104.097504856561", "y": "30.6476193677103" }, "geometry": { "type": "Point", "coordinates": [ 104.097504856560988, 30.64761936771032 ] } },
{ "type": "Feature", "properties": { "NAME": "莲新街道办事处", "ORIG_FID": 7, "x": "104.09581969266", "y": "30.6407992390114" }, "geometry": { "type": "Point", "coordinates": [ 104.095819692660427, 30.640799239011415 ] } },
{ "type": "Feature", "properties": { "NAME": "双桂路街道办事处", "ORIG_FID": 8, "x": "104.107629232659", "y": "30.6349620477289" }, "geometry": { "type": "Point", "coordinates": [ 104.107629232658724, 30.634962047728948 ] } },
{ "type": "Feature", "properties": { "NAME": "沙河街道办事处", "ORIG_FID": 9, "x": "104.116985692443", "y": "30.6300261247228" }, "geometry": { "type": "Point", "coordinates": [ 104.116985692442711, 30.630026124722804 ] } },
{ "type": "Feature", "properties": { "NAME": "龙舟路街道办事处", "ORIG_FID": 10, "x": "104.091238409304", "y": "30.6272751261468" }, "geometry": { "type": "Point", "coordinates": [ 104.091238409304026, 30.627275126146799 ] } },
{ "type": "Feature", "properties": { "NAME": "东光街道办事处", "ORIG_FID": 11, "x": "104.093735404806", "y": "30.6192310558432" }, "geometry": { "type": "Point", "coordinates": [ 104.093735404805614, 30.619231055843215 ] } },
{ "type": "Feature", "properties": { "NAME": "狮子山街道办事处", "ORIG_FID": 12, "x": "104.119642692322", "y": "30.6166216844484" }, "geometry": { "type": "Point", "coordinates": [ 104.119642692321975, 30.616621684448432 ] } },
{ "type": "Feature", "properties": { "NAME": "三圣街道办事处", "ORIG_FID": 13, "x": "104.136676060075", "y": "30.5779524438997" }, "geometry": { "type": "Point", "coordinates": [ 104.136676060075445, 30.577952443899733 ] } },
{ "type": "Feature", "properties": { "NAME": "成龙路街道办事处", "ORIG_FID": 14, "x": "104.121115208047", "y": "30.6002679358525" }, "geometry": { "type": "Point", "coordinates": [ 104.121115208047058, 30.600267935852514 ] } },
{ "type": "Feature", "properties": { "NAME": "柳江街道办事处", "ORIG_FID": 15, "x": "104.092889104915", "y": "30.5859279471327" }, "geometry": { "type": "Point", "coordinates": [ 104.092889104914718, 30.585927947132745 ] } }
]
}
